City_ID,City,Lat,Lng,Max Temp,Humidity,Cloudiness,Wind Speed,Country,Date,Current Description
0,Bambous Virieux,-20.3428,57.7575,66.45,94,75,14.97,MU,2021-07-27 17:49:41,Rain
1,Ushuaia,-54.8,-68.3,37.06,93,90,4.61,AR,2021-07-27 17:44:00,Clouds
2,Nioro,13.35,-15.75,87.51,58,66,9.95,GM,2021-07-27 17:49:42,Clouds
3,Aksu,41.1231,80.2644,88.93,28,61,11.83,CN,2021-07-27 17:49:42,Clouds
4,Cabo San Lucas,22.8909,-109.9124,97.52,66,7,5.01,MX,2021-07-27 17:49:42,Clear
5,Ambon,-3.6954,128.1814,77.14,100,40,3.44,ID,2021-07-27 17:49:42,Clouds
6,Pevek,69.7008,170.3133,33.96,93,100,14.63,RU,2021-07-27 17:49:43,Clouds
7,Bethel,41.3712,-73.414,91.35,52,1,1.01,US,2021-07-27 17:49:43,Clear
8,Emerald,-23.5333,148.1667,52.99,71,4,4.61,AU,2021-07-27 17:46:32,Clear
9,Busselton,-33.65,115.3333,46.09,66,93,12.39,AU,2021-07-27 17:49:43,Clouds
10,Arraial Do Cabo,-22.9661,-42.0278,91.36,45,0,13.8,BR,2021-07-27 17:49:44,Clear
11,Puerto Ayora,-0.7393,-90.3518,78.76,68,55,10.25,EC,2021-07-27 17:49:44,Clouds
12,Hithadhoo,-0.6,73.0833,81.07,78,98,7.49,MV,2021-07-27 17:49:44,Rain
13,Atuona,-9.8,-139.0333,78.15,66,32,21.05,PF,2021-07-27 17:49:44,Clouds
14,Georgetown,5.4112,100.3354,83.89,86,20,0.0,MY,2021-07-27 17:49:45,Clouds
15,Paamiut,61.994,-49.6678,45.57,77,84,16.93,GL,2021-07-27 17:49:45,Clouds
16,Bubaque,11.2833,-15.8333,81.18,79,55,9.08,GW,2021-07-27 17:49:45,Clouds
17,Tortoli,39.9256,9.6572,84.97,78,0,13.8,IT,2021-07-27 17:49:45,Clear
18,Kodiak,57.79,-152.4072,54.91,76,1,4.61,US,2021-07-27 17:44:53,Clear
19,Mount Gambier,-37.8333,140.7667,53.51,76,90,21.85,AU,2021-07-27 17:49:46,Rain
20,Gat,31.61,34.7642,83.8,66,0,6.76,IL,2021-07-27 17:47:27,Clear
21,Longyearbyen,78.2186,15.6401,46.24,87,75,11.5,SJ,2021-07-27 17:49:46,Clouds
22,Kautokeino,69.0125,23.0412,68.29,65,29,15.17,NO,2021-07-27 17:49:46,Clouds
23,Bredasdorp,-34.5322,20.0403,61.92,51,42,20.71,ZA,2021-07-27 17:49:47,Rain
24,Narsaq,60.9167,-46.05,59.22,55,99,8.81,GL,2021-07-27 17:49:47,Clouds
25,Shingu,33.7333,135.9833,77.92,82,97,5.5,JP,2021-07-27 17:49:47,Clouds
26,Gamba,-2.65,10.0,73.24,87,66,7.74,GA,2021-07-27 17:45:07,Clouds
27,Vestmannaeyjar,63.4427,-20.2734,56.39,82,40,5.75,IS,2021-07-27 17:49:47,Clouds
28,Roald,62.5833,6.1333,72.52,77,0,11.5,NO,2021-07-27 17:49:48,Clear
29,Sumbe,-11.2061,13.8437,71.6,87,80,9.01,AO,2021-07-27 17:49:48,Clouds
30,Luderitz,-26.6481,15.1594,58.12,76,0,10.92,NA,2021-07-27 17:49:48,Clear
31,Carnarvon,-24.8667,113.6333,57.27,58,40,6.91,AU,2021-07-27 17:49:49,Clouds
32,Rikitea,-23.1203,-134.9692,74.28,77,97,14.72,PF,2021-07-27 17:49:49,Clouds
33,Qaanaaq,77.484,-69.3632,42.91,97,83,3.98,GL,2021-07-27 17:49:49,Clouds
34,Muroto,33.2833,134.15,79.0,81,88,4.03,JP,2021-07-27 17:49:49,Clouds
35,Santa Rosalia,27.3167,-112.2833,88.81,46,0,9.57,MX,2021-07-27 17:49:50,Clear
36,Sabzevar,36.2126,57.6819,83.77,17,0,27.83,IR,2021-07-27 17:49:50,Clear
37,Allapalli,19.4167,80.0667,76.62,88,99,3.0,IN,2021-07-27 17:49:50,Rain
38,Turayf,31.6725,38.6637,95.25,20,0,11.5,SA,2021-07-27 17:46:27,Clear
39,Bluff,-46.6,168.3333,48.79,71,75,21.12,NZ,2021-07-27 17:49:51,Clouds
40,Marsaxlokk,35.8419,14.5431,84.81,65,0,3.44,MT,2021-07-27 17:49:51,Clear
41,Clyde River,70.4692,-68.5914,55.63,67,75,6.91,CA,2021-07-27 17:46:38,Clouds
42,Tasiilaq,65.6145,-37.6368,42.96,82,49,5.39,GL,2021-07-27 17:49:51,Clouds
43,Araouane,18.9048,-3.5265,105.58,16,97,11.52,ML,2021-07-27 17:49:51,Clouds
44,Chuy,-33.6971,-53.4616,49.1,52,8,17.27,UY,2021-07-27 17:49:52,Clear
45,Punta Arenas,-53.15,-70.9167,42.91,93,75,10.36,CL,2021-07-27 17:47:09,Rain
46,Portland,45.5234,-122.6762,80.46,66,75,1.99,US,2021-07-27 17:49:52,Clouds
47,Cockburn Town,21.4612,-71.1419,85.96,66,40,12.66,TC,2021-07-27 17:46:06,Clouds
48,Kapoeta,4.7717,33.5903,76.57,65,93,9.46,SS,2021-07-27 17:49:52,Clouds
49,Leningradskiy,69.3833,178.4167,35.69,98,100,5.84,RU,2021-07-27 17:49:52,Rain
50,Albany,42.6001,-73.9662,87.8,57,21,4.65,US,2021-07-27 17:49:53,Clouds
51,Ornskoldsvik,63.2909,18.7153,77.95,44,0,5.75,SE,2021-07-27 17:49:53,Clear
52,Lata,40.1629,-8.3327,81.05,53,0,11.48,PT,2021-07-27 17:49:53,Clear
53,Hilo,19.7297,-155.09,74.93,91,90,3.44,US,2021-07-27 17:47:53,Rain
54,Njombe,-9.3333,34.7667,46.69,67,3,4.85,TZ,2021-07-27 17:49:54,Clear
55,Palmer,42.1584,-72.3287,90.45,50,20,1.01,US,2021-07-27 17:49:54,Clouds
56,Dikson,73.5069,80.5464,54.46,94,100,17.63,RU,2021-07-27 17:46:00,Clouds
57,Hasaki,35.7333,140.8333,73.8,75,85,12.26,JP,2021-07-27 17:49:54,Rain
58,Mar Del Plata,-38.0023,-57.5575,51.01,61,90,11.99,AR,2021-07-27 17:49:54,Clouds
59,Mataura,-46.1927,168.8643,48.47,93,96,1.7,NZ,2021-07-27 17:49:32,Clouds
60,Yevlax,40.6089,47.1492,89.58,48,40,12.66,AZ,2021-07-27 17:49:55,Clouds
61,Sao Joao Da Barra,-21.6403,-41.0511,84.29,67,0,14.07,BR,2021-07-27 17:49:55,Clear
62,Pokaran,26.9167,71.9167,86.38,68,100,20.24,IN,2021-07-27 17:49:55,Clouds
63,Malumfashi,11.7853,7.6218,70.99,86,99,12.86,NG,2021-07-27 17:49:55,Clouds
64,Airai,-8.9266,125.4092,56.91,74,36,2.53,TL,2021-07-27 17:49:56,Clouds
65,Altamira,-3.2033,-52.2064,95.09,46,75,6.91,BR,2021-07-27 17:49:56,Clouds
66,Eenhana,-17.4667,16.3333,67.75,25,0,6.64,NA,2021-07-27 17:49:56,Clear
67,Kutum,14.2,24.6667,76.26,65,82,8.86,SD,2021-07-27 17:49:57,Clouds
68,Saint George,37.1041,-113.5841,90.63,55,1,1.99,US,2021-07-27 17:47:06,Clear
69,Nanzhang,31.7765,111.8386,75.65,87,6,6.51,CN,2021-07-27 17:49:57,Clear
70,Roros,62.5747,11.3842,69.64,52,75,12.66,NO,2021-07-27 17:49:57,Clouds
71,Andenes,69.3143,16.1194,61.07,93,90,10.36,NO,2021-07-27 17:49:57,Fog
72,Aklavik,68.2191,-135.0107,56.23,88,90,4.61,CA,2021-07-27 17:49:18,Clouds
73,Cape Town,-33.9258,18.4232,57.09,90,75,5.99,ZA,2021-07-27 17:45:51,Rain
74,Cabedelo,-6.9811,-34.8339,83.07,76,26,14.61,BR,2021-07-27 17:49:58,Clouds
75,Lakatoro,-16.0999,167.4164,76.14,82,99,14.52,VU,2021-07-27 17:49:58,Clouds
76,Saint-Pierre,-21.3393,55.4781,71.24,78,75,13.8,RE,2021-07-27 17:49:58,Clouds
77,Port Elizabeth,-33.918,25.5701,79.09,19,0,11.5,ZA,2021-07-27 17:46:26,Clear
78,Marathon,44.9,-89.7668,80.13,71,1,10.36,US,2021-07-27 17:49:59,Clear
79,Barrow,71.2906,-156.7887,42.82,94,90,9.22,US,2021-07-27 17:49:59,Fog
80,Kapaa,22.0752,-159.319,79.12,81,40,1.01,US,2021-07-27 17:49:59,Clouds
81,Mayumba,-3.432,10.6554,73.06,88,84,6.49,GA,2021-07-27 17:49:59,Clouds
82,New Norfolk,-42.7826,147.0587,57.92,62,98,1.01,AU,2021-07-27 17:50:00,Clouds
83,Avera,33.194,-82.5271,91.94,46,45,4.47,US,2021-07-27 17:50:00,Clouds
84,Upington,-28.4478,21.2561,64.78,27,0,9.22,ZA,2021-07-27 17:50:00,Clear
85,Sharjah,25.3573,55.4033,98.58,50,0,2.3,AE,2021-07-27 17:48:13,Clear
86,Aykhal,66.0,111.5,70.34,54,18,4.56,RU,2021-07-27 17:45:36,Clouds
87,Pingliang,35.5392,106.6861,69.26,54,95,4.88,CN,2021-07-27 17:50:01,Clouds
88,Moose Factory,51.2585,-80.6094,68.0,56,75,6.91,CA,2021-07-27 17:50:01,Clouds
89,Gambela,8.25,34.5833,69.84,95,89,2.8,ET,2021-07-27 17:50:03,Clouds
90,Port Alfred,-33.5906,26.891,72.97,27,0,21.54,ZA,2021-07-27 17:50:03,Clear
91,Wasserbillig,49.71,6.5003,66.09,94,100,5.57,LU,2021-07-27 17:50:03,Rain
92,Bilma,18.6853,12.9164,92.53,32,48,10.96,NE,2021-07-27 17:50:03,Clouds
93,Mount Isa,-20.7333,139.5,49.77,57,3,0.0,AU,2021-07-27 17:50:04,Clear
94,Avarua,-21.2078,-159.775,69.85,83,40,3.44,CK,2021-07-27 17:50:04,Clouds
95,Saint-Philippe,-21.3585,55.7679,71.15,77,57,11.25,RE,2021-07-27 17:50:04,Clouds
96,Presidencia Roque Saenz Pena,-26.7852,-60.4388,63.86,11,1,12.8,AR,2021-07-27 17:50:05,Clear
97,Brae,60.3964,-1.353,55.31,83,80,5.21,GB,2021-07-27 17:50:05,Clouds
98,Vao,-22.6667,167.4833,67.71,59,79,15.9,NC,2021-07-27 17:46:09,Clouds
99,Ostrovnoy,68.0531,39.5131,45.48,88,44,2.15,RU,2021-07-27 17:45:24,Clouds
100,Kavaratti,10.5669,72.642,81.77,79,100,19.04,IN,2021-07-27 17:50:06,Clouds
101,Tallahassee,30.4383,-84.2807,94.93,62,40,5.75,US,2021-07-27 17:45:58,Clouds
102,Arauca,7.0847,-70.7591,83.77,73,40,4.36,CO,2021-07-27 17:50:07,Clouds
103,Nikolskoye,59.7035,30.7861,80.49,54,42,4.45,RU,2021-07-27 17:50:07,Clouds
104,Mayor Pablo Lagerenza,-19.9309,-60.7718,62.91,36,98,11.88,PY,2021-07-27 17:50:07,Clouds
105,Margate,51.3813,1.3862,69.91,67,77,1.99,GB,2021-07-27 17:50:07,Clouds
106,Gizo,-8.103,156.8419,81.52,76,93,6.89,SB,2021-07-27 17:50:08,Clouds
107,Fortuna,40.5982,-124.1573,54.52,97,75,0.0,US,2021-07-27 17:50:08,Clouds
108,Dongsheng,39.8161,109.9776,65.01,66,68,16.73,CN,2021-07-27 17:50:08,Clouds
109,Bengkulu,-3.8004,102.2655,74.41,81,2,4.9,ID,2021-07-27 17:50:08,Clear
110,Trairi,-3.2778,-39.2689,84.74,57,62,14.65,BR,2021-07-27 17:47:44,Clouds
111,Pirapora,-17.345,-44.9419,86.47,21,0,4.45,BR,2021-07-27 17:50:09,Clear
112,Khatanga,71.9667,102.5,74.32,58,75,13.2,RU,2021-07-27 17:50:09,Clouds
113,Cherskiy,68.75,161.3,35.87,85,91,17.02,RU,2021-07-27 17:45:17,Clouds
114,Jamestown,42.097,-79.2353,85.3,45,20,7.0,US,2021-07-27 17:48:44,Clouds
115,Oussouye,12.485,-16.5469,89.78,65,80,10.02,SN,2021-07-27 17:50:10,Clouds
116,Talnakh,69.4865,88.3972,71.15,69,93,5.91,RU,2021-07-27 17:50:10,Clouds
117,Santa Cruz,-17.8,-63.1667,64.45,34,75,29.93,BO,2021-07-27 17:47:50,Clouds
118,Hay River,60.8156,-115.7999,58.96,62,75,9.22,CA,2021-07-27 17:50:10,Clouds
119,Owando,-0.4819,15.8999,83.21,30,65,1.79,CG,2021-07-27 17:50:11,Clouds
120,Aliwal North,-30.6937,26.7114,45.91,35,1,7.36,ZA,2021-07-27 17:50:11,Clear
121,Chokurdakh,70.6333,147.9167,34.95,86,100,11.1,RU,2021-07-27 17:50:11,Clouds
122,Kulhudhuffushi,6.6221,73.07,82.58,75,100,14.5,MV,2021-07-27 17:50:11,Clouds
123,Ahuimanu,21.4447,-157.8378,78.85,69,40,9.22,US,2021-07-27 17:50:12,Clouds
124,Kupang,-10.1667,123.5833,73.96,82,8,5.59,ID,2021-07-27 17:50:12,Clear
125,Fairbanks,64.8378,-147.7164,62.22,79,75,0.0,US,2021-07-27 17:50:12,Clouds
126,Lavrentiya,65.5833,-171.0,43.79,99,100,8.95,RU,2021-07-27 17:50:13,Rain
127,Sarkand,45.41,79.9186,64.54,57,7,0.78,KZ,2021-07-27 17:50:13,Clear
128,Souillac,-20.5167,57.5167,66.58,94,75,14.97,MU,2021-07-27 17:50:13,Rain
129,Hervey Bay,-25.2986,152.8535,58.03,70,31,5.44,AU,2021-07-27 17:50:13,Clouds
130,Pita,10.8333,-12.5833,79.36,90,71,2.73,GN,2021-07-27 17:50:14,Rain
131,Jiupu,41.0667,122.95,74.03,81,39,0.83,CN,2021-07-27 17:50:14,Rain
132,Tombouctou,20.0,-3.0,106.41,14,77,15.05,ML,2021-07-27 17:50:14,Clouds
133,Puerto Penasco,31.3167,-113.5333,89.91,69,59,5.01,MX,2021-07-27 17:46:15,Clouds
134,Vaini,-21.2,-175.2,66.36,94,75,4.61,TO,2021-07-27 17:50:15,Clouds
135,Torbay,47.6666,-52.7314,67.75,93,90,12.66,CA,2021-07-27 17:50:15,Rain
136,Norman Wells,65.282,-126.8329,57.24,77,75,2.3,CA,2021-07-27 17:50:15,Rain
137,Hobart,-42.8794,147.3294,58.26,64,90,5.01,AU,2021-07-27 17:50:15,Clouds
138,Impfondo,1.6381,18.0667,81.77,41,66,2.37,CG,2021-07-27 17:50:16,Clouds
139,Tambacounda,13.7539,-13.7586,95.05,55,40,10.36,SN,2021-07-27 17:50:16,Clouds
140,Sao Miguel Do Araguaia,-13.275,-50.1628,94.39,16,0,4.47,BR,2021-07-27 17:50:16,Clear
141,Baculin,7.4525,126.5842,81.23,74,98,8.99,PH,2021-07-27 17:50:17,Clouds
142,Ribeira Grande,38.5167,-28.7,79.2,69,40,13.8,PT,2021-07-27 17:50:17,Clouds
143,Haines Junction,60.7522,-137.5108,51.75,87,94,1.14,CA,2021-07-27 17:50:17,Clouds
144,Disraeli,45.9001,-71.3491,69.28,62,83,5.01,CA,2021-07-27 17:45:21,Clouds
145,Sambava,-14.2667,50.1667,69.98,78,44,12.55,MG,2021-07-27 17:50:18,Clouds
146,Kaliua,-5.0606,31.7936,69.33,36,6,5.23,TZ,2021-07-27 17:50:18,Clear
147,Roebourne,-20.7833,117.1333,70.63,81,12,8.34,AU,2021-07-27 17:50:18,Clouds
148,Opuwo,-18.0607,13.84,64.85,25,0,8.57,NA,2021-07-27 17:50:18,Clear
149,Castro,-24.7911,-50.0119,62.58,74,75,8.25,BR,2021-07-27 17:50:19,Clouds
150,East London,-33.0153,27.9116,70.74,24,0,1.14,ZA,2021-07-27 17:50:19,Clear
151,Christchurch,-43.5333,172.6333,37.99,84,17,2.3,NZ,2021-07-27 17:47:18,Clouds
152,Piranshahr,36.701,45.1413,78.98,24,7,6.67,IR,2021-07-27 17:50:19,Clear
153,Torbat-E Jam,35.244,60.6225,83.34,17,0,26.6,IR,2021-07-27 17:50:20,Clear
154,Gweru,-19.45,29.8167,50.83,50,0,6.46,ZW,2021-07-27 17:50:20,Clear
155,Nechi,8.0942,-74.7757,80.8,73,100,3.76,CO,2021-07-27 17:50:20,Clouds
156,Kieta,-6.2167,155.6333,77.97,85,69,2.66,PG,2021-07-27 17:50:20,Rain
157,Lazaro Cardenas,17.9583,-102.2,86.74,67,65,6.02,MX,2021-07-27 17:50:21,Clouds
158,Iqaluit,63.7506,-68.5145,55.13,54,75,10.36,CA,2021-07-27 17:50:21,Clouds
159,Bisalpur,28.3,79.8,83.37,82,94,7.74,IN,2021-07-27 17:50:21,Rain
160,Byron Bay,-28.65,153.6167,55.35,90,2,11.07,AU,2021-07-27 17:45:23,Clear
161,Milkovo,54.7167,158.6167,59.94,86,100,5.75,RU,2021-07-27 17:50:22,Clouds
162,Manono,-7.3,27.4167,76.3,32,19,7.85,CD,2021-07-27 17:50:22,Clouds
163,Laredo,27.5064,-99.5075,95.0,55,1,5.75,US,2021-07-27 17:48:51,Clear
164,Usinsk,65.9939,57.5281,44.17,95,88,9.78,RU,2021-07-27 17:50:22,Clouds
165,Samarai,-10.6167,150.6667,78.57,84,83,11.54,PG,2021-07-27 17:50:23,Clouds
166,Hermanus,-34.4187,19.2345,55.8,88,53,20.74,ZA,2021-07-27 17:50:23,Rain
167,Appleton,44.2619,-88.4154,84.4,61,28,5.01,US,2021-07-27 17:50:13,Clouds
168,Lorengau,-2.0226,147.2712,81.14,78,28,7.29,PG,2021-07-27 17:50:23,Clouds
169,Tilichiki,60.4667,166.1,48.79,90,100,8.1,RU,2021-07-27 17:50:24,Clouds
170,Ahipara,-35.1667,173.1667,54.59,82,20,8.3,NZ,2021-07-27 17:50:24,Clouds
171,Panguna,-6.3164,155.4848,68.05,95,66,1.57,PG,2021-07-27 17:50:24,Rain
172,Saskylakh,71.9167,114.0833,53.71,70,24,14.25,RU,2021-07-27 17:49:08,Clouds
173,Suifenhe,44.4,131.1667,71.01,81,88,1.81,CN,2021-07-27 17:50:25,Clouds
174,Olafsvik,64.8945,-23.7142,52.47,79,76,16.84,IS,2021-07-27 17:50:25,Rain
175,Severo-Kurilsk,50.6789,156.125,57.0,97,100,9.06,RU,2021-07-27 17:50:25,Clouds
176,Kavieng,-2.5744,150.7967,82.76,74,41,12.41,PG,2021-07-27 17:50:25,Clouds
177,Owensboro,37.7742,-87.1133,90.16,55,1,5.75,US,2021-07-27 17:50:26,Clear
178,Moss Vale,-34.55,150.3833,48.43,63,94,7.54,AU,2021-07-27 17:50:26,Clouds
179,Bend,44.0582,-121.3153,69.6,56,40,0.0,US,2021-07-27 17:40:14,Drizzle
180,Krasnogorskoye,52.2953,86.1979,54.07,88,23,2.21,RU,2021-07-27 17:45:56,Clouds
181,Yanliang,34.6592,109.2292,76.19,51,99,4.03,CN,2021-07-27 17:50:26,Rain
182,Kapit,2.0167,112.9333,73.51,98,73,0.92,MY,2021-07-27 17:50:27,Clouds
183,Salalah,17.0151,54.0924,78.19,87,99,11.45,OM,2021-07-27 17:50:27,Clouds
184,Coihaique,-45.5752,-72.0662,46.35,53,0,0.0,CL,2021-07-27 17:50:27,Clear
185,Yellowknife,62.456,-114.3525,56.32,62,75,4.0,CA,2021-07-27 17:50:27,Clouds
186,Abnub,27.2696,31.1511,93.42,17,1,9.17,EG,2021-07-27 17:50:28,Clear
187,Birao,10.2849,22.7882,72.5,94,90,5.66,CF,2021-07-27 17:50:28,Rain
188,Long Branch,40.3043,-73.9924,94.28,48,1,6.91,US,2021-07-27 17:50:28,Clear
189,Ponta Do Sol,32.6667,-17.1,77.72,76,3,3.85,PT,2021-07-27 17:50:28,Clear
190,Navoi,40.0844,65.3792,85.48,13,0,18.41,UZ,2021-07-27 17:50:29,Clear
191,Biak,-0.9131,122.8766,74.7,79,23,7.56,ID,2021-07-27 17:50:29,Clouds
192,Areka,7.0667,37.7,59.52,90,95,1.9,ET,2021-07-27 17:50:29,Clouds
193,Vilyuysk,63.7553,121.6247,57.65,63,79,3.31,RU,2021-07-27 17:50:30,Clouds
194,Coquimbo,-29.9533,-71.3436,58.73,62,0,11.5,CL,2021-07-27 17:48:21,Clear
195,Quelimane,-17.8786,36.8883,69.75,82,40,3.0,MZ,2021-07-27 17:50:30,Clouds
196,Port Hedland,-20.3167,118.5667,69.85,94,52,12.66,AU,2021-07-27 17:50:30,Clouds
197,Marsh Harbour,26.5412,-77.0636,85.23,68,53,7.96,BS,2021-07-27 17:50:30,Clouds
198,Geraldton,-28.7667,114.6,61.12,72,90,5.75,AU,2021-07-27 17:50:31,Clouds
199,Pisco,-13.7,-76.2167,67.01,77,2,9.22,PE,2021-07-27 17:50:31,Haze
200,San Ramon De La Nueva Oran,-23.1322,-64.326,65.43,31,90,3.18,AR,2021-07-27 17:50:31,Clouds
201,Yauya,-8.9833,-77.3,60.58,38,40,3.13,PE,2021-07-27 17:50:32,Clouds
202,Mandali,33.7499,45.5541,107.29,11,0,14.58,IQ,2021-07-27 17:50:32,Clear
203,Isangel,-19.55,169.2667,69.19,72,40,12.26,VU,2021-07-27 17:50:32,Clouds
204,Kloulklubed,7.0419,134.2556,83.88,75,100,14.72,PW,2021-07-27 17:50:32,Rain
205,Ullapool,57.8987,-5.1604,63.36,95,100,3.74,GB,2021-07-27 17:50:33,Rain
206,Mecca,21.4267,39.8261,91.98,39,86,6.4,SA,2021-07-27 17:50:33,Clouds
207,Lastoursville,-0.8143,12.7287,79.99,54,84,2.51,GA,2021-07-27 17:50:33,Clouds
208,Provideniya,64.3833,-173.3,46.9,99,100,10.36,RU,2021-07-27 17:50:34,Rain
209,Nanortalik,60.1432,-45.2371,46.0,77,94,0.47,GL,2021-07-27 17:46:28,Clouds
210,San Nicolas,18.1725,120.5953,79.68,91,100,15.3,PH,2021-07-27 17:50:34,Clouds
211,Glenwood Springs,39.5505,-107.3248,89.13,32,4,0.98,US,2021-07-27 17:50:34,Clear
212,Oktyabrskoye,43.0645,44.7417,57.34,100,100,13.42,RU,2021-07-27 17:50:34,Drizzle
213,Petrivka,46.9695,30.9591,79.25,45,83,8.77,UA,2021-07-27 17:50:35,Clouds
214,Zhigansk,66.7697,123.3711,50.63,78,47,12.26,RU,2021-07-27 17:50:35,Clouds
215,Dolores,-36.3132,-57.6792,50.13,50,25,21.41,AR,2021-07-27 17:50:35,Clouds
216,Santa Rita,-7.1139,-34.9781,83.07,69,40,14.97,BR,2021-07-27 17:50:36,Clouds
217,Kalawit,8.0667,122.5167,79.18,88,100,7.78,PH,2021-07-27 17:50:36,Clouds
218,Upernavik,72.7868,-56.1549,48.49,80,100,7.0,GL,2021-07-27 17:48:46,Clouds
219,Okhotsk,59.3833,143.3,57.52,90,4,5.39,RU,2021-07-27 17:46:17,Clear
220,Ugoofaaru,5.6667,73.0,82.67,76,93,13.89,MV,2021-07-27 17:50:36,Clouds
221,Butaritari,3.0707,172.7902,82.02,71,100,9.31,KI,2021-07-27 17:50:36,Rain
222,Cap Malheureux,-19.9842,57.6142,66.69,82,67,1.99,MU,2021-07-27 17:50:37,Rain
223,Puerto Leguizamo,-0.1934,-74.7819,90.3,49,34,1.05,CO,2021-07-27 17:50:37,Clouds
224,Cidreira,-30.1811,-50.2056,53.2,63,75,18.48,BR,2021-07-27 17:50:37,Clouds
225,Toora-Khem,52.4675,96.11,58.1,97,96,2.3,RU,2021-07-27 17:50:38,Clouds
226,Pangnirtung,66.1451,-65.7125,46.4,100,75,3.44,CA,2021-07-27 17:49:03,Clouds
227,Wagga Wagga,-35.1167,147.3667,54.01,71,90,8.05,AU,2021-07-27 17:50:38,Clouds
228,Nadvoitsy,63.8667,34.3167,60.24,59,13,6.93,RU,2021-07-27 17:50:38,Clouds
229,San Patricio,28.017,-97.5169,93.07,41,29,6.91,US,2021-07-27 17:50:38,Clouds
230,Qaqortoq,60.7167,-46.0333,45.7,75,98,6.13,GL,2021-07-27 17:50:39,Clouds
231,Kruisfontein,-34.0033,24.7314,59.88,85,7,9.04,ZA,2021-07-27 17:50:39,Clear
232,Mana,5.6592,-53.7767,83.1,69,30,9.24,GF,2021-07-27 17:50:39,Rain
233,Limoeiro De Anadia,-9.7406,-36.5028,77.76,75,69,11.72,BR,2021-07-27 17:50:40,Clouds
234,Kontagora,10.3999,5.4695,69.53,97,100,3.15,NG,2021-07-27 17:50:40,Clouds
235,Sargatskoye,55.6101,73.4972,55.04,60,52,7.65,RU,2021-07-27 17:50:40,Clouds
236,Puerto Escondido,15.85,-97.0667,86.97,64,76,6.08,MX,2021-07-27 17:50:41,Clouds
237,San Cristobal,7.7669,-72.225,84.38,54,86,6.82,VE,2021-07-27 17:50:41,Clouds
238,Rizal,15.7118,121.1061,76.69,96,100,4.07,PH,2021-07-27 17:50:41,Rain
239,Havre-Saint-Pierre,50.2334,-63.5986,68.36,83,75,8.05,CA,2021-07-27 17:46:18,Clouds
240,Bara,10.3744,10.7288,76.05,77,99,5.03,NG,2021-07-27 17:50:42,Rain
241,Merauke,-8.4667,140.3333,75.63,87,100,9.24,ID,2021-07-27 17:50:42,Clouds
242,Yumen,40.2833,97.2,77.65,23,34,9.06,CN,2021-07-27 17:50:42,Clouds
243,Najran,17.4924,44.1277,90.25,27,95,2.84,SA,2021-07-27 17:50:42,Clouds
244,Cortez,37.3489,-108.5859,84.7,51,75,6.91,US,2021-07-27 17:50:43,Clouds
245,Kununurra,-15.7667,128.7333,66.18,88,75,0.0,AU,2021-07-27 17:46:27,Clouds
246,Nome,64.5011,-165.4064,50.07,87,90,9.22,US,2021-07-27 17:50:43,Rain
247,Goderich,43.7501,-81.7165,75.04,78,80,6.91,CA,2021-07-27 17:48:16,Clouds
248,Vidim,56.4088,103.1106,64.51,52,1,2.68,RU,2021-07-27 17:50:43,Clear
249,Broken Hill,-31.95,141.4333,64.11,20,40,17.27,AU,2021-07-27 17:50:44,Clouds
250,Bamut,43.1599,45.1973,62.11,90,100,5.1,RU,2021-07-27 17:50:44,Clouds
251,Yar-Sale,66.8333,70.8333,48.88,61,49,11.83,RU,2021-07-27 17:50:44,Clouds
252,Sao Filipe,14.8961,-24.4956,75.51,77,53,7.63,CV,2021-07-27 17:50:45,Clouds
253,Kurilsk,45.2333,147.8833,63.7,98,75,2.68,RU,2021-07-27 17:50:45,Clouds
254,Lerwick,60.1545,-1.1494,55.4,81,64,3.94,GB,2021-07-27 17:50:45,Clouds
255,Kahului,20.8947,-156.47,78.84,86,75,13.8,US,2021-07-27 17:50:45,Clouds
256,Arawa,-6.2132,155.5367,76.17,91,67,2.19,PG,2021-07-27 17:50:46,Rain
257,Celestun,20.8667,-90.4,85.86,65,24,9.57,MX,2021-07-27 17:50:46,Clouds
258,Lagoa,39.05,-27.9833,72.27,84,100,11.61,PT,2021-07-27 17:50:46,Clouds
259,Honningsvag,70.9821,25.9704,47.84,89,11,9.82,NO,2021-07-27 17:50:46,Clouds
260,Pella,59.7775,30.8181,80.65,54,38,4.54,RU,2021-07-27 17:48:46,Clouds
261,Berlevag,70.8578,29.0864,49.35,92,60,7.83,NO,2021-07-27 17:50:47,Clouds
262,Rosarito,32.3333,-117.0333,81.63,73,30,11.01,MX,2021-07-27 17:50:47,Clouds
263,Palora,-1.7,-77.9333,78.78,45,64,5.08,EC,2021-07-27 17:50:47,Clouds
264,San Carlos,9.6612,-68.5827,85.53,69,25,4.21,VE,2021-07-27 17:50:48,Clouds
265,Mariakani,-3.8633,39.4736,75.29,80,24,12.28,KE,2021-07-27 17:50:48,Clouds
266,Pacific Grove,36.6177,-121.9166,83.8,82,1,7.0,US,2021-07-27 17:47:24,Clear
267,Tiruchchendur,8.4833,78.1167,83.52,69,98,14.23,IN,2021-07-27 17:50:48,Clouds
268,Beringovskiy,63.05,179.3167,48.07,96,100,9.57,RU,2021-07-27 17:50:49,Rain
269,Saldanha,-33.0117,17.9442,57.25,86,100,12.97,ZA,2021-07-27 17:50:49,Rain
270,Itarema,-2.9248,-39.9167,84.69,60,48,18.21,BR,2021-07-27 17:50:49,Clouds
271,Asau,46.4333,26.4,79.72,81,68,3.27,RO,2021-07-27 17:50:49,Clouds
272,Codrington,-38.2667,141.9667,53.78,89,91,23.71,AU,2021-07-27 17:50:50,Clouds
273,Nioki,-2.7167,17.6833,80.06,24,59,2.98,CD,2021-07-27 17:50:50,Clouds
274,Lompoc,34.6391,-120.4579,71.74,85,90,3.44,US,2021-07-27 17:50:50,Mist
275,Pacifica,37.6138,-122.4869,83.73,80,75,1.99,US,2021-07-27 17:50:50,Clouds
276,Constitucion,-35.3333,-72.4167,53.69,51,0,10.33,CL,2021-07-27 17:50:51,Clear
277,Chapais,49.7834,-74.8492,58.78,46,78,6.71,CA,2021-07-27 17:50:51,Clouds
278,Nemuro,43.3236,145.575,62.4,100,100,6.55,JP,2021-07-27 17:50:51,Clouds
279,Xuddur,4.1213,43.8894,75.9,59,100,16.55,SO,2021-07-27 17:50:51,Clouds
280,Jumla,29.2747,82.1838,65.25,98,95,1.12,NP,2021-07-27 17:50:52,Clouds
281,Hovd,48.0056,91.6419,65.66,62,48,3.49,MN,2021-07-27 17:50:52,Clouds
282,Buraydah,26.326,43.975,108.05,12,24,12.12,SA,2021-07-27 17:50:52,Clouds
283,Alexandria,31.2156,29.9553,82.36,74,20,11.5,EG,2021-07-27 17:48:08,Clouds
284,Turangi,-39.0,175.9333,38.43,88,78,3.83,NZ,2021-07-27 17:50:53,Clouds
285,Kaitangata,-46.2817,169.8464,48.92,75,89,5.03,NZ,2021-07-27 17:50:53,Clouds
286,Katsuura,35.1333,140.3,78.12,85,78,14.97,JP,2021-07-27 17:50:53,Rain
287,Sol-Iletsk,51.1631,54.9918,68.77,38,44,7.25,RU,2021-07-27 17:50:53,Clouds
288,Zheleznodorozhnyy,55.7503,38.0042,79.21,51,21,5.32,RU,2021-07-27 17:50:54,Clouds
289,Vwawa,-9.1167,32.9333,50.29,73,12,5.95,TZ,2021-07-27 17:50:54,Clouds
290,Alofi,-19.0595,-169.9187,66.09,100,50,0.0,NU,2021-07-27 17:50:54,Clouds
291,Prince Rupert,54.3161,-130.3201,59.09,82,90,5.75,CA,2021-07-27 17:50:54,Rain
292,Port Lincoln,-34.7333,135.8667,53.26,71,25,27.54,AU,2021-07-27 17:50:55,Clouds
293,Vanimo,-2.6741,141.3028,77.09,92,72,6.6,PG,2021-07-27 17:46:39,Clouds
294,Mahina,-17.5065,-149.489,78.57,69,75,4.61,PF,2021-07-27 17:50:55,Rain
295,Sola,-13.8833,167.55,79.65,77,82,21.52,VU,2021-07-27 17:50:55,Clouds
296,Waipawa,-41.4122,175.5153,42.03,89,9,3.53,NZ,2021-07-27 17:50:55,Clear
297,Grindavik,63.8424,-22.4338,57.15,82,0,19.57,IS,2021-07-27 17:50:56,Clear
298,Mahebourg,-20.4081,57.7,66.49,94,75,14.97,MU,2021-07-27 17:50:56,Rain
299,Deputatskiy,69.3,139.9,37.94,79,84,4.16,RU,2021-07-27 17:50:56,Clouds
300,La Ronge,55.1001,-105.2842,66.45,68,90,6.91,CA,2021-07-27 17:50:57,Clouds
301,Port Hardy,50.6996,-127.4199,57.38,82,40,4.61,CA,2021-07-27 17:47:03,Clouds
302,Yabelo,4.8833,38.0833,64.47,52,97,6.78,ET,2021-07-27 17:48:01,Clouds
303,Half Moon Bay,37.4636,-122.4286,84.15,70,75,5.75,US,2021-07-27 17:50:58,Clouds
304,Mogadishu,2.0371,45.3438,76.57,81,96,21.68,SO,2021-07-27 17:50:58,Clouds
305,Wilmington,34.2257,-77.9447,91.98,73,40,8.05,US,2021-07-27 17:50:58,Clouds
306,Oktyabrskiy,54.4815,53.471,64.04,59,82,5.23,RU,2021-07-27 17:50:59,Clouds
307,Helena,46.5927,-112.0361,95.25,26,1,3.44,US,2021-07-27 17:50:59,Haze
308,Victoria,22.2855,114.1577,87.85,89,79,1.01,HK,2021-07-27 17:49:26,Clouds
309,Clearlake,38.9582,-122.6264,77.81,36,100,2.62,US,2021-07-27 17:50:59,Clouds
310,Bandarbeyla,9.4942,50.8122,78.94,73,98,27.25,SO,2021-07-27 17:50:59,Clouds
311,Labuhan,-6.8844,112.2051,73.62,86,38,7.16,ID,2021-07-27 17:51:00,Clouds
312,Lingyuan,41.24,119.4011,70.84,92,100,2.01,CN,2021-07-27 17:51:00,Clouds
313,Alto Araguaia,-17.3147,-53.2153,90.84,20,10,10.04,BR,2021-07-27 17:51:00,Clear
314,Whyalla,-33.0333,137.5833,57.09,77,75,9.22,AU,2021-07-27 17:51:00,Clouds
315,Cayenne,4.9333,-52.3333,86.09,76,90,5.01,GF,2021-07-27 17:51:01,Clouds
316,Necochea,-38.5473,-58.7368,49.03,78,93,26.15,AR,2021-07-27 17:51:01,Clouds
317,Anadyr,64.75,177.4833,50.5,99,90,0.0,RU,2021-07-27 17:51:01,Rain
318,Amurzet,47.6967,131.0981,73.54,83,4,4.0,RU,2021-07-27 17:51:02,Clear
319,Lensk,60.7253,114.9278,68.63,65,24,3.15,RU,2021-07-27 17:51:02,Clouds
320,Tazovskiy,67.4667,78.7,42.53,93,100,12.97,RU,2021-07-27 17:51:02,Clouds
321,Bela,25.9333,81.9833,80.71,90,100,10.16,IN,2021-07-27 17:51:02,Clouds
322,Hofn,64.2539,-15.2082,55.56,77,96,4.99,IS,2021-07-27 17:51:03,Clouds
323,Balkanabat,39.5108,54.3671,95.05,29,3,4.65,TM,2021-07-27 17:51:03,Clear
324,Juegang,32.3174,121.1855,77.07,93,100,22.73,CN,2021-07-27 17:51:03,Rain
325,Matamoros,25.5333,-103.25,88.11,33,0,5.75,MX,2021-07-27 17:48:04,Clear
326,Naryan-Mar,67.6713,53.087,43.59,87,60,12.33,RU,2021-07-27 17:51:04,Clouds
327,Panalingaan,8.7842,117.4231,80.56,86,77,6.22,PH,2021-07-27 17:51:04,Clouds
328,Bom Jesus,-9.0744,-44.3586,97.18,20,2,4.74,BR,2021-07-27 17:51:04,Clear
329,Lumberton,34.6182,-79.0086,94.91,47,24,4.76,US,2021-07-27 17:49:20,Clouds
330,Abu Dhabi,24.4667,54.3667,96.91,71,11,6.91,AE,2021-07-27 17:51:05,Clouds
331,Perth,-31.9333,115.8333,58.05,85,0,8.05,AU,2021-07-27 17:51:05,Clear
332,Izhma,65.0083,53.9113,46.15,91,99,8.9,RU,2021-07-27 17:51:05,Clouds
333,Faya,18.3851,42.4509,66.31,80,90,5.59,SA,2021-07-27 17:43:59,Clouds
334,Lac-Megantic,45.5834,-70.8823,68.22,46,92,11.56,CA,2021-07-27 17:51:06,Clouds
335,Nassjo,57.6531,14.6968,59.92,97,100,1.34,SE,2021-07-27 17:51:06,Rain
336,Millbrook,32.4799,-86.3619,93.27,45,1,5.61,US,2021-07-27 17:47:24,Rain
337,Contamana,-7.3333,-75.0167,94.75,38,18,4.23,PE,2021-07-27 17:51:06,Clouds
338,Klaksvik,62.2266,-6.589,54.52,97,94,13.47,FO,2021-07-27 17:51:07,Clouds
339,Vestmanna,62.1564,-7.1664,52.72,100,75,9.22,FO,2021-07-27 17:51:07,Clouds
340,Cotcot,16.8277,120.8398,59.4,98,100,3.47,PH,2021-07-27 17:51:07,Rain
341,Palmas Bellas,9.2319,-80.0867,87.1,82,60,2.75,PA,2021-07-27 17:51:07,Clouds
342,Aden,12.7794,45.0367,83.55,76,65,7.96,YE,2021-07-27 17:48:34,Clouds
343,Atar,20.5169,-13.0499,108.7,10,51,7.38,MR,2021-07-27 17:51:08,Clouds
344,Tecolutla,20.4833,-97.0167,86.72,62,42,9.8,MX,2021-07-27 17:51:08,Clouds
345,Saint Anthony,45.0205,-93.218,92.25,57,1,3.0,US,2021-07-27 17:51:08,Clear
346,Sao Felix Do Xingu,-6.6447,-51.995,96.58,21,72,3.56,BR,2021-07-27 17:51:09,Clouds
347,Nuuk,64.1835,-51.7216,48.61,82,100,19.13,GL,2021-07-27 17:51:09,Clouds
348,Kendari,-3.945,122.4989,73.56,94,28,3.38,ID,2021-07-27 17:51:09,Clouds
349,Ciudad Bolivar,8.1222,-63.5497,89.08,56,70,5.68,VE,2021-07-27 17:51:10,Clouds
350,Batagay-Alyta,67.8006,130.4114,46.15,71,93,8.79,RU,2021-07-27 17:51:10,Clouds
351,Port Blair,11.6667,92.75,82.13,84,91,17.94,IN,2021-07-27 17:51:10,Clouds
352,Barao De Melgaco,-16.1944,-55.9675,95.52,21,20,11.61,BR,2021-07-27 17:51:10,Clouds
353,Vila Franca Do Campo,37.7167,-25.4333,73.81,78,51,10.13,PT,2021-07-27 17:51:11,Clouds
354,Mandalgovi,45.7625,106.2708,64.44,63,98,6.89,MN,2021-07-27 17:51:11,Clouds
355,Zaida,34.0603,72.4678,91.11,63,39,13.15,PK,2021-07-27 17:51:11,Clouds
356,San Jose De Rio Tinto,14.9333,-85.7,94.57,38,35,6.13,HN,2021-07-27 17:51:12,Clouds
357,Galveston,29.3669,-94.9669,95.2,76,93,1.01,US,2021-07-27 17:48:23,Clouds
358,Verkhnevilyuysk,63.4453,120.3167,59.86,67,27,3.15,RU,2021-07-27 17:51:12,Clouds
359,Karla,59.3723,24.9275,80.56,48,0,11.5,EE,2021-07-27 17:51:12,Clear
360,Shetpe,44.1667,52.1167,80.87,20,72,16.71,KZ,2021-07-27 17:51:13,Clouds
361,Aripuana,-9.1667,-60.6333,99.34,24,16,2.17,BR,2021-07-27 17:51:13,Clouds
362,Zhezkazgan,47.8043,67.7144,71.58,25,0,13.15,KZ,2021-07-27 17:51:13,Clear
363,Aguimes,27.9054,-15.4461,74.86,56,20,28.77,ES,2021-07-27 17:51:14,Clouds
364,Tanda,26.55,82.65,82.17,87,99,5.35,IN,2021-07-27 17:51:14,Clouds
365,Mantua,45.1667,10.7833,78.28,84,43,3.0,IT,2021-07-27 17:51:14,Clouds
366,Sangre Grande,10.5835,-61.1177,83.93,74,42,7.81,TT,2021-07-27 17:51:15,Clouds
367,Petropavlovsk-Kamchatskiy,53.0452,158.6483,61.39,94,75,6.71,RU,2021-07-27 17:51:15,Clouds
368,Taoudenni,22.6783,-3.9836,113.68,4,6,12.1,ML,2021-07-27 17:51:15,Clear
369,Kalanwali,29.85,74.95,86.09,75,100,6.29,IN,2021-07-27 17:51:15,Rain
370,Kolyvan,55.3053,82.7391,56.05,65,96,3.85,RU,2021-07-27 17:51:16,Clouds
371,Adrar,20.5022,-10.0711,102.27,12,100,15.82,MR,2021-07-27 17:51:16,Clouds
372,Canandaigua,42.8742,-77.288,76.35,86,35,3.0,US,2021-07-27 17:51:16,Rain
373,Ponnani,10.767,75.9252,74.52,88,98,6.24,IN,2021-07-27 17:51:16,Clouds
374,Thompson,55.7435,-97.8558,60.96,88,75,4.61,CA,2021-07-27 17:51:17,Clouds
375,El Campo,29.1966,-96.2697,91.98,55,1,3.44,US,2021-07-27 17:51:17,Clear
376,Namie,37.4833,141.0,75.96,94,97,11.52,JP,2021-07-27 17:51:17,Rain
377,Mlalo,-4.9333,38.9333,69.4,81,18,7.34,TZ,2021-07-27 17:51:17,Clouds
378,Gramoteino,54.5368,86.3839,53.38,86,31,1.23,RU,2021-07-27 17:51:18,Clouds
379,Ewa Beach,21.3156,-158.0072,79.09,64,1,5.01,US,2021-07-27 17:51:18,Clear
380,Lebu,-37.6167,-73.65,49.68,66,1,24.74,CL,2021-07-27 17:51:18,Clear
381,Port Moresby,-9.4431,147.1797,76.42,94,40,8.05,PG,2021-07-27 17:51:18,Haze
382,Egvekinot,66.3167,-179.1667,43.05,93,100,8.52,RU,2021-07-27 17:51:19,Rain
383,Guerrero Negro,27.9769,-114.0611,78.51,55,0,10.94,MX,2021-07-27 17:51:19,Clear
384,Quimper,48.0,-4.1,67.03,72,75,12.66,FR,2021-07-27 17:51:19,Clouds
385,Faanui,-16.4833,-151.75,77.9,74,47,9.28,PF,2021-07-27 17:51:20,Rain
386,Ilulissat,69.2167,-51.1,51.84,72,100,5.39,GL,2021-07-27 17:51:20,Clouds
387,Pangody,65.85,74.4859,50.05,62,19,8.79,RU,2021-07-27 17:51:20,Clouds
388,Garissa,-0.4536,39.6401,76.1,56,51,25.9,KE,2021-07-27 17:51:21,Clouds
389,Aksha,50.2814,113.2867,54.95,91,17,1.52,RU,2021-07-27 17:51:22,Clouds
390,Sinnamary,5.3833,-52.95,84.25,67,37,8.61,GF,2021-07-27 17:51:22,Clouds
391,Baykit,61.67,96.37,66.9,75,69,2.3,RU,2021-07-27 17:51:22,Clouds
392,Tuatapere,-46.1333,167.6833,48.81,87,77,5.1,NZ,2021-07-27 17:51:22,Clouds
393,Southbridge,42.0751,-72.0334,90.16,53,5,1.01,US,2021-07-27 17:51:23,Clear
394,Caucaia,-3.7361,-38.6531,87.08,68,20,19.57,BR,2021-07-27 17:51:23,Clouds
395,Manyana,-23.4,21.7167,51.21,38,0,6.15,BW,2021-07-27 17:51:23,Clear
396,Manaus,-3.1019,-60.025,91.9,58,40,3.44,BR,2021-07-27 17:51:23,Clouds
397,Tuktoyaktuk,69.4541,-133.0374,48.2,87,90,9.22,CA,2021-07-27 17:51:24,Rain
398,Tanout,14.9709,8.8879,90.93,38,56,6.24,NE,2021-07-27 17:51:24,Clouds
399,Beloha,-25.1667,45.05,61.21,70,46,10.25,MG,2021-07-27 17:51:24,Clouds
400,Atambua,-9.1061,124.8925,69.31,85,20,4.12,ID,2021-07-27 17:51:24,Clouds
401,Comodoro Rivadavia,-45.8667,-67.5,49.86,53,75,9.22,AR,2021-07-27 17:50:23,Clouds
402,Llanes,43.4198,-4.7549,69.85,85,54,6.87,ES,2021-07-27 17:51:25,Clouds
403,Orlik,52.5178,99.825,57.0,91,51,2.08,RU,2021-07-27 17:51:25,Rain
404,Aswan,24.0934,32.907,101.5,16,0,11.5,EG,2021-07-27 17:51:25,Clear
405,Hamilton,39.1834,-84.5333,90.36,48,1,1.01,US,2021-07-27 17:40:43,Clear
406,Nsoko,-27.0333,31.95,56.82,78,0,4.76,SZ,2021-07-27 17:51:26,Clear
407,Lamu,-2.2717,40.902,73.62,79,26,20.54,KE,2021-07-27 17:51:26,Clouds
408,Cedartown,34.0537,-85.255,93.7,73,44,3.44,US,2021-07-27 17:51:26,Clouds
409,Tarkwa,5.3064,-1.9847,78.15,64,95,7.74,GH,2021-07-27 17:51:26,Clouds
410,Kampot,10.6167,104.1833,82.45,82,80,9.57,KH,2021-07-27 17:51:27,Clouds
411,Maiduguri,11.8464,13.1603,72.88,91,100,11.05,NG,2021-07-27 17:51:27,Rain
412,Tignoan,14.5647,121.6197,82.58,84,96,15.28,PH,2021-07-27 17:51:27,Clouds
413,Havoysund,70.9963,24.6622,50.88,90,12,9.24,NO,2021-07-27 17:51:27,Clouds
414,Seddon,-37.8068,144.8916,61.47,56,40,7.0,AU,2021-07-27 17:51:28,Clouds
415,Kamenka,51.3223,42.7678,68.67,59,64,1.03,RU,2021-07-27 17:46:47,Clouds
416,Umm Kaddadah,13.6017,26.6876,84.69,52,66,10.87,SD,2021-07-27 17:51:28,Clouds
417,Kebumen,-7.6687,109.6519,73.38,89,45,4.27,ID,2021-07-27 17:51:28,Clouds
418,Agua Branca,-5.8922,-42.6361,99.77,20,6,2.91,BR,2021-07-27 17:51:29,Clear
419,Strathpeffer,57.588,-4.5382,62.71,93,100,4.25,GB,2021-07-27 17:51:29,Clouds
420,Nouakchott,18.0858,-15.9785,80.53,78,38,14.45,MR,2021-07-27 17:51:29,Clouds
421,Arlit,18.7369,7.3853,81.68,54,93,9.71,NE,2021-07-27 17:51:29,Clouds
422,Kyabram,-36.3167,145.05,54.88,57,100,17.43,AU,2021-07-27 17:46:30,Clouds
423,Teya,60.3778,92.6267,58.93,97,100,4.7,RU,2021-07-27 17:51:30,Rain
424,Luba,3.4568,8.5547,80.49,78,51,4.76,GQ,2021-07-27 17:51:30,Clouds
425,Dzilam Gonzalez,21.2833,-88.9333,96.31,40,17,1.3,MX,2021-07-27 17:51:30,Clouds
426,Manzhouli,49.6,117.4333,59.61,85,4,3.65,CN,2021-07-27 17:51:31,Clear
427,Suna,57.8338,50.0588,52.02,70,25,7.31,RU,2021-07-27 17:51:31,Clouds
428,Balaipungut,1.05,101.2833,77.41,89,74,0.85,ID,2021-07-27 17:51:31,Clouds
429,Inongo,-1.95,18.2667,74.25,40,45,1.32,CD,2021-07-27 17:51:31,Clouds
430,Linqiong,30.4159,103.4609,80.42,73,31,3.27,CN,2021-07-27 17:51:32,Clouds
431,Xai-Xai,-25.0519,33.6442,62.49,69,1,6.62,MZ,2021-07-27 17:51:32,Clear
432,Lillooet,50.6856,-121.942,74.12,32,0,0.29,CA,2021-07-27 17:51:32,Clear
433,Baruun-Urt,46.6806,113.2792,62.04,62,79,4.41,MN,2021-07-27 17:51:32,Clouds
434,Nueve De Julio,-35.4444,-60.8831,49.71,40,22,18.77,AR,2021-07-27 17:51:33,Clouds
435,Ukiah,39.1502,-123.2078,80.53,43,1,0.0,US,2021-07-27 17:50:04,Clear
436,Benghazi,32.1167,20.0667,80.56,66,0,16.46,LY,2021-07-27 17:51:33,Clear
437,Makakilo City,21.3469,-158.0858,77.68,64,1,4.61,US,2021-07-27 17:51:33,Clear
438,Mondlo,-27.983,30.7177,50.9,27,4,6.96,ZA,2021-07-27 17:51:34,Clear
439,Ashqelon,31.6693,34.5715,84.81,69,0,7.18,IL,2021-07-27 17:51:34,Clear
440,Meulaboh,4.1363,96.1285,77.27,90,38,4.25,ID,2021-07-27 17:51:34,Clouds
441,Nosy Varika,-20.5833,48.5333,62.58,88,19,12.84,MG,2021-07-27 17:51:34,Clouds
442,Sao Joao Del Rei,-21.1356,-44.2617,77.43,22,1,9.78,BR,2021-07-27 17:51:35,Clear
443,Serowe,-22.3833,26.7167,52.5,42,0,5.1,BW,2021-07-27 17:51:35,Clear
444,Aquiraz,-3.9014,-38.3911,87.22,57,75,11.12,BR,2021-07-27 17:51:35,Clouds
445,Yulara,-25.2406,130.9889,67.84,32,90,9.22,AU,2021-07-27 17:51:35,Clouds
446,Komsomolskiy,40.4272,71.7189,84.92,34,40,4.61,UZ,2021-07-27 17:51:36,Clouds
447,Miercurea Sibiului,45.8833,23.8,85.98,51,70,5.55,RO,2021-07-27 17:51:36,Clouds
448,Palizada,18.25,-92.0833,91.76,53,79,3.04,MX,2021-07-27 17:51:36,Clouds
449,Bambanglipuro,-7.95,110.2833,73.76,85,36,4.56,ID,2021-07-27 17:51:37,Clouds
450,Dire,12.2833,-10.9667,80.74,85,100,2.04,ML,2021-07-27 17:51:37,Rain
451,Viedma,-40.8135,-62.9967,47.48,56,66,25.77,AR,2021-07-27 17:51:37,Clouds
452,Novokayakent,42.3937,47.9861,78.85,72,15,14.07,RU,2021-07-27 17:51:37,Clouds
453,Tailai,46.3833,123.4,69.67,72,73,7.02,CN,2021-07-27 17:51:38,Clouds
454,Seoul,37.5683,126.9778,81.84,83,0,3.44,KR,2021-07-27 17:51:38,Clear
455,Goma,-1.6792,29.2228,66.78,63,92,2.21,CD,2021-07-27 17:51:38,Clouds
456,Weiser,44.251,-116.9693,95.31,24,77,3.24,US,2021-07-27 17:51:38,Clouds
457,Daru,-9.0763,143.2092,76.91,88,98,15.08,PG,2021-07-27 17:51:39,Clouds
458,Santiago De Cao,-7.9589,-79.2392,68.13,83,40,10.36,PE,2021-07-27 17:51:39,Clouds
459,Ayagoz,47.9714,80.4392,60.17,56,0,11.77,KZ,2021-07-27 17:51:39,Clear
460,Shagonar,51.5333,92.8,62.28,90,96,2.1,RU,2021-07-27 17:51:40,Clouds
461,The Valley,18.217,-63.0578,87.66,66,40,16.11,AI,2021-07-27 17:51:40,Clouds
462,Dovers,12.8833,-61.1833,83.79,76,60,13.04,VC,2021-07-27 17:51:40,Clouds
463,Gweta,-20.1833,25.2333,59.41,36,0,8.43,BW,2021-07-27 17:51:40,Clear
464,Guantanamo,20.1444,-75.2092,90.46,44,98,2.77,CU,2021-07-27 17:51:41,Clouds
465,Praya,14.9215,-23.5087,82.94,61,75,6.91,CV,2021-07-27 17:51:41,Clouds
466,Mattru,7.6244,-11.8332,75.54,93,94,5.57,SL,2021-07-27 17:51:41,Rain
467,Kosice,48.6667,21.3333,82.89,44,0,12.66,SK,2021-07-27 17:50:03,Clear
468,Shumikha,55.2261,63.2961,56.01,85,67,7.56,RU,2021-07-27 17:51:41,Clouds
469,Haimen,23.1935,116.6142,84.09,82,53,11.05,CN,2021-07-27 17:51:42,Clouds
470,Mabaruma,8.2,-59.7833,84.06,76,87,3.65,GY,2021-07-27 17:51:42,Clouds
471,Bayan,46.0833,127.4,72.7,96,4,3.83,CN,2021-07-27 17:47:50,Clear
472,Areia Branca,-4.9561,-37.1369,100.6,63,9,17.65,BR,2021-07-27 17:51:42,Clear
473,Lamesa,32.7376,-101.951,93.07,22,70,3.06,US,2021-07-27 17:51:43,Clouds
474,Brandon,27.9378,-82.2859,93.29,74,40,5.99,US,2021-07-27 17:51:43,Clouds
475,Elliot,-31.3333,27.85,48.02,28,18,11.1,ZA,2021-07-27 17:51:43,Clouds
476,Soloneshnoye,51.6544,84.3197,52.75,85,58,0.67,RU,2021-07-27 17:51:43,Clouds
477,Pemangkat,1.1667,108.9667,79.74,85,96,8.93,ID,2021-07-27 17:51:44,Rain
478,Poum,-20.2333,164.0167,69.19,70,29,11.7,NC,2021-07-27 17:49:39,Clouds
479,Jalu,29.0331,21.5482,93.15,20,0,7.38,LY,2021-07-27 17:51:44,Clear
480,Chipinge,-20.1883,32.6236,50.22,78,19,5.12,ZW,2021-07-27 17:51:44,Clouds
481,Wajir,1.7471,40.0573,81.18,44,100,21.18,KE,2021-07-27 17:51:44,Clouds
482,Huarmey,-10.0681,-78.1522,71.08,72,27,10.25,PE,2021-07-27 17:51:45,Clouds
483,Osa,57.2829,55.4567,55.51,64,63,5.46,RU,2021-07-27 17:51:45,Clouds
484,Mahibadhoo,3.7833,72.9667,82.63,76,98,12.5,MV,2021-07-27 17:51:45,Clouds
485,Lomintsevskiy,53.9855,37.6647,65.73,83,78,1.54,RU,2021-07-27 17:51:46,Clouds
486,Dudinka,69.4058,86.1778,66.83,91,75,11.03,RU,2021-07-27 17:51:46,Rain
487,Mehran,33.1222,46.1646,108.88,10,0,16.13,IR,2021-07-27 17:51:46,Clear
488,Bereda,43.2686,-7.5406,70.14,74,89,5.64,ES,2021-07-27 17:51:46,Clouds
489,Marawi,7.9986,124.2928,72.64,87,100,6.82,PH,2021-07-27 17:51:47,Clouds
490,Lubango,-14.9172,13.4925,58.5,36,31,5.44,AO,2021-07-27 17:51:47,Clouds
491,Bagdarin,54.4333,113.6,59.47,67,96,3.94,RU,2021-07-27 17:51:47,Clouds
492,Ayapa,18.1833,-93.1667,86.94,66,86,5.39,MX,2021-07-27 17:51:47,Clouds
493,Palana,59.1167,159.9667,44.85,99,100,9.57,RU,2021-07-27 17:51:48,Clouds
494,Lima,-12.0432,-77.0282,64.65,77,90,4.61,PE,2021-07-27 17:48:13,Clouds
495,Saint-Joseph,-21.3667,55.6167,70.16,75,72,11.5,RE,2021-07-27 17:51:48,Clouds
496,Chumikan,54.7183,135.315,64.74,68,100,5.61,RU,2021-07-27 17:51:48,Clouds
497,Beibei,29.8256,106.4339,82.87,83,67,3.02,CN,2021-07-27 17:51:48,Rain
498,Tukrah,32.5341,20.5791,79.29,65,0,15.12,LY,2021-07-27 17:51:49,Clear
499,Saint-Augustin,51.226,-58.6502,65.88,84,97,9.26,CA,2021-07-27 17:51:49,Clouds
500,Esperance,-33.8667,121.9,46.24,76,69,19.22,AU,2021-07-27 17:51:49,Clouds
501,Mehriz,31.5917,54.4318,88.3,20,51,11.79,IR,2021-07-27 17:51:50,Clouds
502,Barcelona,41.3888,2.159,86.34,72,20,1.01,ES,2021-07-27 17:49:25,Clouds
503,Novyy Urengoy,66.0833,76.6333,47.66,70,32,5.86,RU,2021-07-27 17:51:50,Clouds
504,Radhanpur,23.8333,71.6,83.39,77,100,23.02,IN,2021-07-27 17:51:50,Rain
505,Namatanai,-3.6667,152.4333,79.38,80,59,5.79,PG,2021-07-27 17:51:50,Rain
506,Albanel,48.8832,-72.4487,60.94,67,28,9.22,CA,2021-07-27 17:51:51,Clouds
507,Tessalit,20.1986,1.0114,94.84,27,39,8.12,ML,2021-07-27 17:51:51,Clouds
508,Sibu,2.3,111.8167,77.31,100,40,1.99,MY,2021-07-27 17:51:51,Clouds
509,Exu,-7.5119,-39.7242,89.74,29,3,8.48,BR,2021-07-27 17:51:52,Clear
510,Pavlovka,52.6897,47.1405,63.59,71,40,4.52,RU,2021-07-27 17:51:52,Clouds
511,Shimoda,34.6667,138.95,76.1,84,100,6.67,JP,2021-07-27 17:51:52,Clouds
512,Shelton,41.3165,-73.0932,92.82,52,1,1.01,US,2021-07-27 17:48:14,Haze
513,Sitka,57.0531,-135.33,60.69,72,75,5.75,US,2021-07-27 17:51:52,Clouds
514,Kargat,55.1956,80.2811,57.42,62,100,5.57,RU,2021-07-27 17:51:53,Clouds
515,Los Llanos De Aridane,28.6585,-17.9182,72.12,78,40,21.85,ES,2021-07-27 17:51:53,Clouds
516,Anori,-3.7728,-61.6442,96.37,32,30,3.74,BR,2021-07-27 17:51:53,Clouds
517,San Quintin,30.4833,-115.95,75.51,68,7,10.45,MX,2021-07-27 17:51:53,Clear
518,Zhuanghe,39.7008,122.9911,75.4,88,90,4.74,CN,2021-07-27 17:51:54,Clouds
519,Sugag,45.7667,23.6333,80.15,51,84,7.52,RO,2021-07-27 17:51:54,Clouds
520,Batagay,67.6333,134.6333,41.43,82,11,4.88,RU,2021-07-27 17:51:54,Clouds
521,Marienburg,54.0359,19.0266,75.88,72,90,5.19,PL,2021-07-27 17:51:55,Clouds
522,Trincomalee,8.5711,81.2335,81.63,77,60,22.35,LK,2021-07-27 17:49:09,Clouds
523,Carutapera,-1.195,-46.02,84.04,67,49,8.5,BR,2021-07-27 17:51:55,Clouds
524,Fairview,40.8126,-73.999,93.54,40,1,4.0,US,2021-07-27 17:51:52,Clear
525,Koumac,-20.5667,164.2833,64.47,75,0,5.75,NC,2021-07-27 17:51:55,Clear
526,Boguszow-Gorce,50.7551,16.2049,76.53,60,68,2.98,PL,2021-07-27 17:49:50,Clouds
527,Kargopol,61.5071,38.9456,57.36,62,15,4.07,RU,2021-07-27 17:51:55,Clouds
528,Imatra,61.1719,28.7524,80.98,40,18,3.76,FI,2021-07-27 17:51:56,Clouds
529,Nicoya,10.1483,-85.452,87.35,65,65,3.83,CR,2021-07-27 17:51:56,Clouds
530,Tiksi,71.6872,128.8694,35.98,95,51,4.92,RU,2021-07-27 17:51:56,Clouds
531,Kapuskasing,49.4169,-82.4331,68.09,59,75,1.14,CA,2021-07-27 17:51:56,Clouds
532,Diamantino,-14.4086,-56.4461,96.66,20,15,5.86,BR,2021-07-27 17:51:57,Clouds
533,Mizdah,31.4451,12.9801,86.76,22,0,10.54,LY,2021-07-27 17:51:57,Clear
534,Gazanjyk,39.2446,55.5154,94.98,16,0,11.32,TM,2021-07-27 17:51:57,Clear
535,Ormara,25.2088,64.6357,82.2,84,100,11.01,PK,2021-07-27 17:51:58,Clouds
536,Concepcion,-36.827,-73.0498,51.6,50,0,17.27,CL,2021-07-27 17:48:24,Clear
537,Kushima,31.4583,131.2333,74.07,90,0,3.67,JP,2021-07-27 17:51:58,Clear
538,Kpandae,8.4689,-0.0113,80.02,66,94,7.14,GH,2021-07-27 17:51:58,Clouds
539,Sabang,5.8933,95.3214,83.64,78,62,19.89,ID,2021-07-27 17:51:58,Clouds
540,Iracoubo,5.4802,-53.2011,83.7,69,33,9.22,GF,2021-07-27 17:51:59,Clouds
541,Olot,42.181,2.4901,83.8,33,53,1.99,ES,2021-07-27 17:51:59,Clouds
542,Novyy Urgal,51.0736,132.5642,68.25,98,100,2.73,RU,2021-07-27 17:51:59,Clouds
543,Surt,31.2089,16.5887,80.65,66,0,16.4,LY,2021-07-27 17:52:00,Clear
544,Imelda,7.65,123.95,78.82,88,100,2.13,PH,2021-07-27 17:52:00,Clouds
545,Kalmunai,7.4167,81.8167,83.17,68,94,2.59,LK,2021-07-27 17:52:00,Clouds
546,Hakui,36.8833,136.7833,75.16,92,85,0.6,JP,2021-07-27 17:52:00,Clouds
547,Aviles,43.5547,-5.9248,69.93,72,40,5.99,ES,2021-07-27 17:52:01,Clouds
548,Cervo,43.6702,-7.4101,74.19,78,51,5.93,ES,2021-07-27 17:52:01,Clouds
549,Sayat,38.7839,63.8803,91.27,12,0,24.67,TM,2021-07-27 17:52:01,Clear
550,Nevsehir,38.9167,34.6667,76.21,36,40,21.85,TR,2021-07-27 17:52:02,Clouds
551,Oistins,13.0667,-59.5333,86.09,66,40,18.41,BB,2021-07-27 17:52:02,Clouds
552,Arys,42.4252,68.795,86.22,15,0,23.04,KZ,2021-07-27 17:52:02,Clear
553,Bratislava,48.1482,17.1067,83.86,51,0,5.75,SK,2021-07-27 17:52:02,Clear
554,Kirov,58.5966,49.6601,49.91,70,25,3.91,RU,2021-07-27 17:52:03,Clouds
555,Mogok,22.9167,96.5,63.88,99,74,3.22,MM,2021-07-27 17:52:03,Clouds
556,Kaili,-3.4626,120.2147,64.13,87,31,3.0,ID,2021-07-27 17:52:03,Clouds
557,Popondetta,-8.7537,148.2534,71.53,97,79,2.57,PG,2021-07-27 17:52:04,Clouds
558,Lakselv,70.0513,24.9718,64.22,67,0,14.97,NO,2021-07-27 17:52:04,Clear
559,Placido De Castro,-10.3353,-67.1856,97.36,29,68,2.46,BR,2021-07-27 17:52:04,Clouds
560,Greenville,35.6127,-77.3663,91.11,70,1,4.61,US,2021-07-27 17:49:26,Clear
561,Thyboron,56.6985,8.2124,69.1,87,51,5.7,DK,2021-07-27 17:52:04,Clouds
562,Santa Marta,11.2408,-74.199,89.35,78,72,5.21,CO,2021-07-27 17:52:05,Clouds
563,Laguna,38.421,-121.4238,84.7,29,1,0.0,US,2021-07-27 17:52:05,Clear
564,Jackson,42.4165,-122.8345,70.84,83,1,5.75,US,2021-07-27 17:51:51,Clear
565,Padang,-0.9492,100.3543,77.43,89,18,3.38,ID,2021-07-27 17:52:06,Clouds
566,Murray Bridge,-35.1167,139.2667,58.12,70,3,25.1,AU,2021-07-27 17:52:07,Clear
567,Bonfim,3.0833,-59.95,88.39,57,12,5.97,BR,2021-07-27 17:52:07,Clouds
568,Rawson,-43.3002,-65.1023,45.54,61,61,26.24,AR,2021-07-27 17:52:07,Rain
569,Kholmogory,64.2229,41.656,57.31,72,19,7.25,RU,2021-07-27 17:52:07,Clouds
570,Karwar,14.8,74.1333,78.24,87,99,11.97,IN,2021-07-27 17:50:54,Clouds
571,Dargaville,-35.9333,173.8833,53.19,80,27,9.75,NZ,2021-07-27 17:52:08,Clouds
572,Gobo,33.8833,135.15,78.78,80,82,5.61,JP,2021-07-27 17:48:49,Clouds
573,Flinders,-34.5833,150.8552,56.48,68,100,4.0,AU,2021-07-27 17:52:08,Clouds
574,Burns Lake,54.2331,-125.7533,54.82,43,52,2.71,CA,2021-07-27 17:52:08,Clouds
575,Henties Bay,-22.116,14.2845,60.85,65,0,10.74,NA,2021-07-27 17:52:08,Clear
576,Dom Pedro,-4.4833,-44.45,96.73,29,13,2.1,BR,2021-07-27 17:52:09,Clouds
577,Khandyga,62.6667,135.6,53.74,74,6,4.92,RU,2021-07-27 17:52:09,Clear
578,Vardo,70.3705,31.1107,46.38,100,90,4.61,NO,2021-07-27 17:52:09,Fog
579,Dawlatabad,36.4141,64.9053,91.13,14,0,18.1,AF,2021-07-27 17:52:10,Clear
580,Ittiri,40.5929,8.5684,79.7,47,18,2.04,IT,2021-07-27 17:52:10,Clouds
581,Puerto Narino,-3.7703,-70.3831,85.95,54,76,3.74,CO,2021-07-27 17:52:10,Clouds
582,Yeysk,46.6989,38.2792,76.68,51,37,10.58,RU,2021-07-27 17:52:10,Clouds
583,Paciran,-6.8767,112.3761,74.77,82,43,5.64,ID,2021-07-27 17:52:11,Clouds
584,Beira,-19.8436,34.8389,69.89,77,20,8.99,MZ,2021-07-27 17:52:11,Clouds
585,Stavern,59.0,10.0333,67.3,96,100,7.14,NO,2021-07-27 17:52:11,Clouds
586,Misrikh,27.45,80.5167,81.9,87,72,6.58,IN,2021-07-27 17:52:11,Clouds
587,Djibo,14.1022,-1.6306,91.13,44,100,11.39,BF,2021-07-27 17:52:12,Clouds
588,Takhtamukay,44.9215,38.9958,71.78,57,0,13.42,RU,2021-07-27 17:52:12,Clear
589,Husavik,66.0449,-17.3389,49.91,99,100,11.23,IS,2021-07-27 17:52:12,Rain
590,Beyneu,45.3167,55.2,83.89,17,60,14.41,KZ,2021-07-27 17:48:43,Clouds
591,Quatre Cocos,-20.2078,57.7625,66.31,83,88,13.94,MU,2021-07-27 17:52:13,Rain
592,Erzurum,40.0,41.5,71.28,72,41,6.49,TR,2021-07-27 17:52:13,Clouds
593,Riachao Do Jacuipe,-11.8069,-39.3856,80.6,55,86,7.74,BR,2021-07-27 17:50:46,Clouds
594,Liezen,47.5667,14.2333,76.68,87,82,3.62,AT,2021-07-27 17:52:13,Clouds
595,Zabol,32.25,67.25,87.87,14,100,13.04,AF,2021-07-27 17:52:13,Clouds
596,Leh,34.1667,77.5833,67.5,50,51,9.04,IN,2021-07-27 17:52:14,Clouds
597,Irece,-11.3042,-41.8558,84.09,29,1,6.04,BR,2021-07-27 17:52:15,Clear
598,San Lorenzo,-25.3333,-57.5333,59.94,36,0,18.01,PY,2021-07-27 17:52:15,Clear
599,Chipurupalle,18.3,83.5667,84.83,60,99,6.06,IN,2021-07-27 17:52:15,Clouds
600,Palatka,29.6486,-81.6376,93.06,37,16,4.27,US,2021-07-27 17:52:16,Clouds
601,Juneau,58.3019,-134.4197,59.85,91,75,1.99,US,2021-07-27 17:51:44,Clouds
602,Tumarbong,10.3766,119.4579,80.64,82,97,7.47,PH,2021-07-27 17:52:16,Clouds
603,Astana,51.1801,71.446,62.55,42,0,4.47,KZ,2021-07-27 17:48:46,Clear
604,Lichuan,30.3,108.85,65.55,94,66,1.28,CN,2021-07-27 17:52:16,Clouds
605,Angoche,-16.2325,39.9086,69.67,66,31,9.4,MZ,2021-07-27 17:52:17,Clouds
606,Rio Gallegos,-51.6226,-69.2181,42.85,87,90,8.05,AR,2021-07-27 17:51:36,Rain
607,La Macarena,2.1837,-73.7849,80.02,83,80,2.21,CO,2021-07-27 17:52:17,Clouds
608,Encruzilhada Do Sul,-30.5439,-52.5219,47.23,41,29,13.24,BR,2021-07-27 17:50:37,Clouds
609,Yamada,39.4667,141.95,71.44,99,99,10.16,JP,2021-07-27 17:52:17,Clouds
610,Nalut,30.3333,10.85,94.28,11,0,10.25,LY,2021-07-27 17:52:18,Clear
611,Amahai,-3.3333,128.9167,77.11,89,82,3.31,ID,2021-07-27 17:52:18,Clouds
612,Yinchuan,38.4681,106.2731,73.35,49,64,4.74,CN,2021-07-27 17:52:18,Clouds
613,Denpasar,-8.65,115.2167,76.66,94,40,3.44,ID,2021-07-27 17:50:40,Clouds
614,Yerofey Pavlovich,53.9667,121.9667,59.88,93,100,2.46,RU,2021-07-27 17:52:18,Clouds
615,Hirara,24.8,125.2833,81.93,90,87,6.13,JP,2021-07-27 17:52:19,Clouds
616,Gazli,40.1333,63.45,90.41,13,0,17.92,UZ,2021-07-27 17:52:19,Clear
617,Sokolo,14.7328,-6.1219,91.94,41,72,5.57,ML,2021-07-27 17:52:19,Clouds
618,Sakakah,29.9697,40.2064,103.57,15,0,20.13,SA,2021-07-27 17:52:19,Clear
619,Champerico,14.3,-91.9167,91.76,71,87,5.75,GT,2021-07-27 17:52:20,Clouds
620,Deniliquin,-35.5333,144.9667,55.0,48,100,15.3,AU,2021-07-27 17:52:20,Rain
621,Guanica,17.9716,-66.908,90.21,74,11,5.99,PR,2021-07-27 17:52:20,Clouds
622,Tuy Hoa,13.0833,109.3,84.65,66,94,14.76,VN,2021-07-27 17:52:20,Clouds
623,Ancud,-41.8697,-73.8203,47.73,65,63,2.04,CL,2021-07-27 17:52:21,Clouds
624,Turukhansk,65.8167,87.9833,55.33,95,100,8.95,RU,2021-07-27 17:52:21,Clouds
625,Hobyo,5.3505,48.5268,78.89,68,92,22.97,SO,2021-07-27 17:52:22,Clouds
626,Nchelenge,-9.3451,28.734,66.61,53,74,3.04,ZM,2021-07-27 17:52:22,Clouds
627,Severo-Yeniseyskiy,60.3725,93.0408,56.68,96,100,5.93,RU,2021-07-27 17:52:23,Clouds
628,Mandan,46.8267,-100.8896,83.41,69,1,11.5,US,2021-07-27 17:52:23,Clear
629,Oranjemund,-28.55,16.4333,55.99,86,0,6.6,NA,2021-07-27 17:52:23,Clear
630,Touros,-5.1989,-35.4608,76.1,66,9,16.53,BR,2021-07-27 17:52:24,Clear
631,Pasighat,28.0667,95.3333,79.45,87,98,3.0,IN,2021-07-27 17:52:24,Clouds
632,Loreto,22.2667,-101.9667,76.98,29,9,9.55,MX,2021-07-27 17:52:24,Clear
633,Ulladulla,-35.35,150.4667,56.3,62,90,8.68,AU,2021-07-27 17:52:24,Clouds
634,Pirganj,25.8523,88.3618,83.53,84,99,6.51,BD,2021-07-27 17:52:25,Clouds
635,Bilibino,68.0546,166.4372,39.79,83,93,6.53,RU,2021-07-27 17:52:25,Clouds
636,Lhokseumawe,5.1801,97.1507,78.4,87,89,4.85,ID,2021-07-27 17:52:25,Clouds
637,Eydhafushi,5.1033,73.0708,82.71,75,89,13.71,MV,2021-07-27 17:52:25,Clouds
638,Ixtapa,20.7,-105.2,89.22,67,19,5.01,MX,2021-07-27 17:52:26,Clouds
639,Ust-Shonosha,61.1531,41.343,55.58,68,4,3.85,RU,2021-07-27 17:52:26,Clear
640,Natal,-5.795,-35.2094,75.85,94,90,9.22,BR,2021-07-27 17:48:33,Clouds
641,Shillong,25.5689,91.8831,66.04,96,100,1.61,IN,2021-07-27 17:52:26,Clouds
642,Hun,29.1268,15.9477,91.2,18,2,7.74,LY,2021-07-27 17:52:27,Clear
643,Kihei,20.785,-156.4656,78.84,87,75,13.8,US,2021-07-27 17:51:41,Clouds
644,Berezovka,53.7214,25.4993,68.04,93,97,3.38,BY,2021-07-27 17:52:27,Clouds
645,Auki,-8.7676,160.7034,76.37,90,77,4.54,SB,2021-07-27 17:52:27,Clouds
646,Garachine,8.0647,-78.3628,81.3,80,79,4.99,PA,2021-07-27 17:52:27,Clouds
647,Karratha,-20.7377,116.8463,70.29,85,9,8.75,AU,2021-07-27 17:52:28,Clear
648,Bolshaya Rechka,51.9503,104.7355,62.87,84,3,2.44,RU,2021-07-27 17:52:28,Clear
649,Rudnya,54.947,31.0934,64.08,87,100,7.38,RU,2021-07-27 17:52:28,Clouds
650,Floro,61.5996,5.0328,72.3,100,75,6.91,NO,2021-07-27 17:52:28,Clouds
651,Singkang,2.1006,102.7994,76.89,87,6,3.11,MY,2021-07-27 17:52:29,Clear
652,Qasigiannguit,68.8193,-51.1922,50.31,71,100,2.17,GL,2021-07-27 17:52:29,Clouds
653,La Paz,-16.5,-68.15,58.98,24,40,13.8,BO,2021-07-27 17:50:34,Clouds
654,Gornopravdinsk,60.05,69.9,54.07,96,98,3.87,RU,2021-07-27 17:52:29,Clouds
655,Askiz,53.1319,90.5264,64.13,73,99,2.42,RU,2021-07-27 17:52:30,Clouds
656,Boda,4.3189,17.4695,71.8,89,100,4.79,CF,2021-07-27 17:52:30,Clouds
657,Muli,2.9167,73.5667,82.17,77,94,11.74,MV,2021-07-27 17:52:30,Clouds
658,Springbok,-29.6643,17.8865,47.64,68,0,4.5,ZA,2021-07-27 17:52:30,Clear
659,Sobolevo,54.4299,31.8996,67.51,73,100,6.91,RU,2021-07-27 17:52:31,Rain
660,Panama City,8.9936,-79.5197,87.17,72,20,1.01,PA,2021-07-27 17:52:31,Clouds
661,Luau,-10.7073,22.2247,64.02,28,100,3.22,AO,2021-07-27 17:52:31,Clouds
662,Ursulo Galvan,22.7333,-98.3,93.2,54,1,2.39,MX,2021-07-27 17:52:31,Clear
663,Sechura,-5.5569,-80.8222,79.43,56,29,10.87,PE,2021-07-27 17:52:32,Clouds
664,Reinosa,42.9996,-4.138,60.35,93,82,8.34,ES,2021-07-27 17:52:32,Clouds
665,Sharlyk,52.9167,54.75,64.65,63,74,5.35,RU,2021-07-27 17:52:32,Clouds
666,Brownsville,25.9018,-97.4975,91.98,60,20,1.01,US,2021-07-27 17:47:34,Clouds
667,Batticaloa,7.7102,81.6924,83.17,67,67,11.41,LK,2021-07-27 17:52:32,Clouds
668,Camana,-16.6228,-72.7111,62.96,77,65,10.29,PE,2021-07-27 17:52:33,Clouds
669,Kerman,30.2832,57.0788,82.26,20,44,9.22,IR,2021-07-27 17:52:33,Clouds
670,Hokitika,-42.7167,170.9667,48.16,86,90,3.38,NZ,2021-07-27 17:52:33,Clouds
671,Teluk Nibung,3.001,99.8164,74.75,95,28,4.25,ID,2021-07-27 17:52:33,Clouds
672,Matara,5.9485,80.5353,79.34,87,92,11.74,LK,2021-07-27 17:52:34,Clouds
673,Grand-Lahou,5.1367,-5.0242,77.43,79,100,9.51,CI,2021-07-27 17:52:34,Clouds
674,Visnes,59.3556,5.2242,67.57,94,75,8.05,NO,2021-07-27 17:52:34,Clouds
675,Trelew,-43.249,-65.3051,45.64,58,60,22.95,AR,2021-07-27 17:50:23,Clouds
676,Vagay,57.9375,69.0217,52.88,98,86,4.72,RU,2021-07-27 17:52:35,Clouds
677,Mokhsogollokh,61.4681,128.9203,54.21,75,4,4.9,RU,2021-07-27 17:52:35,Clear
678,Nyurba,63.2842,118.3319,62.6,79,61,3.2,RU,2021-07-27 17:52:35,Clouds
679,Te Anau,-45.4167,167.7167,43.74,93,74,5.01,NZ,2021-07-27 17:52:36,Clouds
680,Caravelas,-17.7125,-39.2481,78.01,61,12,9.24,BR,2021-07-27 17:52:36,Clouds
681,Richards Bay,-28.783,32.0377,66.67,64,20,18.52,ZA,2021-07-27 17:52:36,Clouds
682,Sungurlu,40.1675,34.3739,71.15,50,27,10.11,TR,2021-07-27 17:52:36,Clouds
683,Zhangye,38.9342,100.4517,74.23,28,96,4.81,CN,2021-07-27 17:52:37,Clouds
684,Outjo,-20.1167,16.15,60.12,27,0,8.5,NA,2021-07-27 17:52:37,Clear
685,Hohhot,40.8106,111.6522,66.49,72,0,4.47,CN,2021-07-27 17:52:37,Clear
686,Mujiayingzi,42.1167,118.7833,68.65,88,90,1.99,CN,2021-07-27 17:52:37,Clouds
687,Srandakan,-7.9386,110.2506,74.07,85,37,4.61,ID,2021-07-27 17:52:38,Clouds
688,Piacabucu,-10.4056,-36.4344,77.11,81,28,9.13,BR,2021-07-27 17:52:38,Clouds
689,Manhattan,40.7834,-73.9662,93.94,40,1,0.0,US,2021-07-27 17:48:56,Haze
690,Puerto Madero,14.7208,-92.4215,84.09,69,51,4.12,MX,2021-07-27 17:52:38,Clouds
691,Itanhem,-17.1664,-40.33,83.52,38,44,4.21,BR,2021-07-27 17:52:39,Clouds
692,Nago,26.5881,127.9761,82.47,94,89,11.05,JP,2021-07-27 17:52:39,Clouds
693,Veraval,20.9,70.3667,81.97,84,100,21.59,IN,2021-07-27 17:52:39,Rain
694,Eastbourne,50.7687,0.2845,68.4,87,65,5.01,GB,2021-07-27 17:52:40,Clouds
